[
  {
    "city": "Tokyo",
    "city_ascii": "Tokyo",
    "lat": 35.6897,
    "lng": 139.6922,
    "country": "Japan",
    "iso2": "JP",
    "iso3": "JPN",
    "admin_name": "Tōkyō",
    "capital": "primary",
    "population": 37977000,
    "id": 1392685764
  },
  {
    "city": "Jakarta",
    "city_ascii": "Jakarta",
    "lat": -6.2146,
    "lng": 106.8451,
    "country": "Indonesia",
    "iso2": "ID",
    "iso3": "IDN",
    "admin_name": "Jakarta",
    "capital": "primary",
    "population": 34540000,
    "id": 1360771077
  },
  {
    "city": "Manila",
    "city_ascii": "Manila",
    "lat": 14.5958,
    "lng": 120.9772,
    "country": "Philippines",
    "iso2": "PH",
    "iso3": "PHL",
    "admin_name": "Manila",
    "capital": "primary",
    "population": 23088000,
    "id": 1608618140
  },
  {
    "city": "Seoul",
    "city_ascii": "Seoul",
    "lat": 37.5833,
    "lng": 127,
    "country": "Korea, South",
    "iso2": "KR",
    "iso3": "KOR",
    "admin_name": "Seoul",
    "capital": "primary",
    "population": 21794000,
    "id": 1410836482
  },
  {
    "city": "Mexico City",
    "city_ascii": "Mexico City",
    "lat": 19.4333,
    "lng": -99.1333,
    "country": "Mexico",
    "iso2": "MX",
    "iso3": "MEX",
    "admin_name": "Ciudad de México",
    "capital": "primary",
    "population": 20996000,
    "id": 1484247881
  },
  {
    "city": "Beijing",
    "city_ascii": "Beijing",
    "lat": 39.905,
    "lng": 116.3914,
    "country": "China",
    "iso2": "CN",
    "iso3": "CHN",
    "admin_name": "Beijing",
    "capital": "primary",
    "population": 19433000,
    "id": 1156228865
  },
  {
    "city": "Cairo",
    "city_ascii": "Cairo",
    "lat": 30.0561,
    "lng": 31.2394,
    "country": "Egypt",
    "iso2": "EG",
    "iso3": "EGY",
    "admin_name": "Al Qāhirah",
    "capital": "primary",
    "population": 19372000,
    "id": 1818253931
  },
  {
    "city": "Moscow",
    "city_ascii": "Moscow",
    "lat": 55.7558,
    "lng": 37.6178,
    "country": "Russia",
    "iso2": "RU",
    "iso3": "RUS",
    "admin_name": "Moskva",
    "capital": "primary",
    "population": 17125000,
    "id": 1643318494
  },
  {
    "city": "Bangkok",
    "city_ascii": "Bangkok",
    "lat": 13.75,
    "lng": 100.5167,
    "country": "Thailand",
    "iso2": "TH",
    "iso3": "THA",
    "admin_name": "Krung Thep Maha Nakhon",
    "capital": "primary",
    "population": 17066000,
    "id": 1764068610
  },
  {
    "city": "Buenos Aires",
    "city_ascii": "Buenos Aires",
    "lat": -34.5997,
    "lng": -58.3819,
    "country": "Argentina",
    "iso2": "AR",
    "iso3": "ARG",
    "admin_name": "Buenos Aires, Ciudad Autónoma de",
    "capital": "primary",
    "population": 16157000,
    "id": 1032717330
  },
  {
    "city": "Dhaka",
    "city_ascii": "Dhaka",
    "lat": 23.7161,
    "lng": 90.3961,
    "country": "Bangladesh",
    "iso2": "BD",
    "iso3": "BGD",
    "admin_name": "Dhaka",
    "capital": "primary",
    "population": 15443000,
    "id": 1050529279
  },
  {
    "city": "Tehran",
    "city_ascii": "Tehran",
    "lat": 35.7,
    "lng": 51.4167,
    "country": "Iran",
    "iso2": "IR",
    "iso3": "IRN",
    "admin_name": "Tehrān",
    "capital": "primary",
    "population": 13633000,
    "id": 1364305026
  },
  {
    "city": "Kinshasa",
    "city_ascii": "Kinshasa",
    "lat": -4.3317,
    "lng": 15.3139,
    "country": "Congo (Kinshasa)",
    "iso2": "CD",
    "iso3": "COD",
    "admin_name": "Kinshasa",
    "capital": "primary",
    "population": 13528000,
    "id": 1180000363
  },
  {
    "city": "Paris",
    "city_ascii": "Paris",
    "lat": 48.8566,
    "lng": 2.3522,
    "country": "France",
    "iso2": "FR",
    "iso3": "FRA",
    "admin_name": "Île-de-France",
    "capital": "primary",
    "population": 11020000,
    "id": 1250015082,
    "landmarks": [
      {
        "name": "Eiffel Tower",
        "lat": 48.8584,
        "lng": 2.2945
      }
    ]
  },
  {
    "city": "London",
    "city_ascii": "London",
    "lat": 51.5072,
    "lng": -0.1275,
    "country": "United Kingdom",
    "iso2": "GB",
    "iso3": "GBR",
    "admin_name": "London, City of",
    "capital": "primary",
    "population": 10979000,
    "id": 1826645935,
    "landmarks": [
      {
        "name": "Big Ben",
        "lat": 51.5007,
        "lng": -0.1246
      },
      {
        "name": "St Pancras International",
        "lat": 51.5314,
        "lng": -0.1261
      }
    ]
  },
  {
    "city": "Lima",
    "city_ascii": "Lima",
    "lat": -12.05,
    "lng": -77.0333,
    "country": "Peru",
    "iso2": "PE",
    "iso3": "PER",
    "admin_name": "Lima",
    "capital": "primary",
    "population": 9848000,
    "id": 1604728603
  },
  {
    "city": "Bogotá",
    "city_ascii": "Bogota",
    "lat": 4.6126,
    "lng": -74.0705,
    "country": "Colombia",
    "iso2": "CO",
    "iso3": "COL",
    "admin_name": "Bogotá",
    "capital": "primary",
    "population": 9464000,
    "id": 1170483426
  },
  {
    "city": "Luanda",
    "city_ascii": "Luanda",
    "lat": -8.8383,
    "lng": 13.2344,
    "country": "Angola",
    "iso2": "AO",
    "iso3": "AGO",
    "admin_name": "Luanda",
    "capital": "primary",
    "population": 8417000,
    "id": 1024949724
  },
  {
    "city": "Kuala Lumpur",
    "city_ascii": "Kuala Lumpur",
    "lat": 3.1478,
    "lng": 101.6953,
    "country": "Malaysia",
    "iso2": "MY",
    "iso3": "MYS",
    "admin_name": "Kuala Lumpur",
    "capital": "primary",
    "population": 8285000,
    "id": 1458988644
  },
  {
    "city": "Hanoi",
    "city_ascii": "Hanoi",
    "lat": 21.0245,
    "lng": 105.8412,
    "country": "Vietnam",
    "iso2": "VN",
    "iso3": "VNM",
    "admin_name": "Hà Nội",
    "capital": "primary",
    "population": 7785000,
    "id": 1704413791
  },
  {
    "city": "Khartoum",
    "city_ascii": "Khartoum",
    "lat": 15.6031,
    "lng": 32.5265,
    "country": "Sudan",
    "iso2": "SD",
    "iso3": "SDN",
    "admin_name": "Khartoum",
    "capital": "primary",
    "population": 7282000,
    "id": 1729268475
  },
  {
    "city": "Santiago",
    "city_ascii": "Santiago",
    "lat": -33.45,
    "lng": -70.6667,
    "country": "Chile",
    "iso2": "CL",
    "iso3": "CHL",
    "admin_name": "Región Metropolitana",
    "capital": "primary",
    "population": 7007000,
    "id": 1152554349
  },
  {
    "city": "Riyadh",
    "city_ascii": "Riyadh",
    "lat": 24.65,
    "lng": 46.71,
    "country": "Saudi Arabia",
    "iso2": "SA",
    "iso3": "SAU",
    "admin_name": "Ar Riyāḑ",
    "capital": "primary",
    "population": 6881000,
    "id": 1682999334
  },
  {
    "city": "Dar es Salaam",
    "city_ascii": "Dar es Salaam",
    "lat": -6.8,
    "lng": 39.2833,
    "country": "Tanzania",
    "iso2": "TZ",
    "iso3": "TZA",
    "admin_name": "Dar es Salaam",
    "capital": "primary",
    "population": 6698000,
    "id": 1834843853
  },
  {
    "city": "Baghdad",
    "city_ascii": "Baghdad",
    "lat": 33.35,
    "lng": 44.4167,
    "country": "Iraq",
    "iso2": "IQ",
    "iso3": "IRQ",
    "admin_name": "Baghdād",
    "capital": "primary",
    "population": 5796000,
    "id": 1368596238
  },
  {
    "city": "Singapore",
    "city_ascii": "Singapore",
    "lat": 1.3,
    "lng": 103.8,
    "country": "Singapore",
    "iso2": "SG",
    "iso3": "SGP",
    "admin_name": "Central Singapore",
    "capital": "primary",
    "population": 5745000,
    "id": 1702341327
  },
  {
    "city": "Nairobi",
    "city_ascii": "Nairobi",
    "lat": -1.2864,
    "lng": 36.8172,
    "country": "Kenya",
    "iso2": "KE",
    "iso3": "KEN",
    "admin_name": "Nairobi City",
    "capital": "primary",
    "population": 5545000,
    "id": 1404000661
  },
  {
    "city": "Ankara",
    "city_ascii": "Ankara",
    "lat": 39.93,
    "lng": 32.85,
    "country": "Turkey",
    "iso2": "TR",
    "iso3": "TUR",
    "admin_name": "Ankara",
    "capital": "primary",
    "population": 5503985,
    "id": 1792572891
  },
  {
    "city": "Rangoon",
    "city_ascii": "Rangoon",
    "lat": 16.8,
    "lng": 96.15,
    "country": "Burma",
    "iso2": "MM",
    "iso3": "MMR",
    "admin_name": "Yangon",
    "capital": "primary",
    "population": 5430000,
    "id": 1104616656
  },
  {
    "city": "Washington",
    "city_ascii": "Washington",
    "lat": 38.9047,
    "lng": -77.0163,
    "country": "United States",
    "iso2": "US",
    "iso3": "USA",
    "admin_name": "District of Columbia",
    "capital": "primary",
    "population": 5379184,
    "id": 1840006060
  },
  {
    "city": "Abidjan",
    "city_ascii": "Abidjan",
    "lat": 5.3364,
    "lng": -4.0267,
    "country": "Côte D’Ivoire",
    "iso2": "CI",
    "iso3": "CIV",
    "admin_name": "Abidjan",
    "capital": "primary",
    "population": 4980000,
    "id": 1384207980
  },
  {
    "city": "Amman",
    "city_ascii": "Amman",
    "lat": 31.95,
    "lng": 35.9333,
    "country": "Jordan",
    "iso2": "JO",
    "iso3": "JOR",
    "admin_name": "Al ‘Āşimah",
    "capital": "primary",
    "population": 4007526,
    "id": 1400522593
  },
  {
    "city": "Kabul",
    "city_ascii": "Kabul",
    "lat": 34.5328,
    "lng": 69.1658,
    "country": "Afghanistan",
    "iso2": "AF",
    "iso3": "AFG",
    "admin_name": "Kābul",
    "capital": "primary",
    "population": 3678034,
    "id": 1004993580
  },
  {
    "city": "Berlin",
    "city_ascii": "Berlin",
    "lat": 52.5167,
    "lng": 13.3833,
    "country": "Germany",
    "iso2": "DE",
    "iso3": "DEU",
    "admin_name": "Berlin",
    "capital": "primary",
    "population": 3644826,
    "id": 1276451290
  },
  {
    "city": "Algiers",
    "city_ascii": "Algiers",
    "lat": 36.7764,
    "lng": 3.0586,
    "country": "Algeria",
    "iso2": "DZ",
    "iso3": "DZA",
    "admin_name": "Alger",
    "capital": "primary",
    "population": 3415811,
    "id": 1012973369
  },
  {
    "city": "Madrid",
    "city_ascii": "Madrid",
    "lat": 40.4189,
    "lng": -3.6919,
    "country": "Spain",
    "iso2": "ES",
    "iso3": "ESP",
    "admin_name": "Madrid",
    "capital": "primary",
    "population": 3266126,
    "id": 1724616994
  },
  {
    "city": "Addis Ababa",
    "city_ascii": "Addis Ababa",
    "lat": 9.0272,
    "lng": 38.7369,
    "country": "Ethiopia",
    "iso2": "ET",
    "iso3": "ETH",
    "admin_name": "Ādīs Ābeba",
    "capital": "primary",
    "population": 3041002,
    "id": 1231824991
  },
  {
    "city": "Brasília",
    "city_ascii": "Brasilia",
    "lat": -15.7744,
    "lng": -48.0773,
    "country": "Brazil",
    "iso2": "BR",
    "iso3": "BRA",
    "admin_name": "Distrito Federal",
    "capital": "primary",
    "population": 3015268,
    "id": 1076144436
  },
  {
    "city": "Kyiv",
    "city_ascii": "Kyiv",
    "lat": 50.45,
    "lng": 30.5236,
    "country": "Ukraine",
    "iso2": "UA",
    "iso3": "UKR",
    "admin_name": "Kyyiv, Misto",
    "capital": "primary",
    "population": 2967000,
    "id": 1804382913
  },
  {
    "city": "Sanaa",
    "city_ascii": "Sanaa",
    "lat": 15.35,
    "lng": 44.2,
    "country": "Yemen",
    "iso2": "YE",
    "iso3": "YEM",
    "admin_name": "Amānat al ‘Āşimah",
    "capital": "primary",
    "population": 2957000,
    "id": 1887750814
  },
  {
    "city": "Rome",
    "city_ascii": "Rome",
    "lat": 41.8931,
    "lng": 12.4828,
    "country": "Italy",
    "iso2": "IT",
    "iso3": "ITA",
    "admin_name": "Lazio",
    "capital": "primary",
    "population": 2872800,
    "id": 1380382862
  },
  {
    "city": "La Paz",
    "city_ascii": "La Paz",
    "lat": -16.4942,
    "lng": -68.1475,
    "country": "Bolivia",
    "iso2": "BO",
    "iso3": "BOL",
    "admin_name": "La Paz",
    "capital": "primary",
    "population": 2867504,
    "id": 1068000064
  },
  {
    "city": "Pyongyang",
    "city_ascii": "Pyongyang",
    "lat": 39.03,
    "lng": 125.73,
    "country": "Korea, North",
    "iso2": "KP",
    "iso3": "PRK",
    "admin_name": "P’yŏngyang",
    "capital": "primary",
    "population": 2863000,
    "id": 1408738594
  },
  {
    "city": "Taipei",
    "city_ascii": "Taipei",
    "lat": 25.0478,
    "lng": 121.5319,
    "country": "Taiwan",
    "iso2": "TW",
    "iso3": "TWN",
    "admin_name": "Taipei",
    "capital": "primary",
    "population": 2684567,
    "id": 1158881289
  },
  {
    "city": "Antananarivo",
    "city_ascii": "Antananarivo",
    "lat": -18.9386,
    "lng": 47.5214,
    "country": "Madagascar",
    "iso2": "MG",
    "iso3": "MDG",
    "admin_name": "Antananarivo",
    "capital": "primary",
    "population": 2610000,
    "id": 1450978461
  },
  {
    "city": "Santo Domingo",
    "city_ascii": "Santo Domingo",
    "lat": 18.4764,
    "lng": -69.8933,
    "country": "Dominican Republic",
    "iso2": "DO",
    "iso3": "DOM",
    "admin_name": "Ozama",
    "capital": "primary",
    "population": 2581827,
    "id": 1214636202
  },
  {
    "city": "Guatemala City",
    "city_ascii": "Guatemala City",
    "lat": 14.6099,
    "lng": -90.5252,
    "country": "Guatemala",
    "iso2": "GT",
    "iso3": "GTM",
    "admin_name": "Guatemala",
    "capital": "primary",
    "population": 2450212,
    "id": 1320197916
  },
  {
    "city": "Yaoundé",
    "city_ascii": "Yaounde",
    "lat": 3.8578,
    "lng": 11.5181,
    "country": "Cameroon",
    "iso2": "CM",
    "iso3": "CMR",
    "admin_name": "Centre",
    "capital": "primary",
    "population": 2440462,
    "id": 1120298240
  },
  {
    "city": "Tashkent",
    "city_ascii": "Tashkent",
    "lat": 41.3,
    "lng": 69.2667,
    "country": "Uzbekistan",
    "iso2": "UZ",
    "iso3": "UZB",
    "admin_name": "Toshkent",
    "capital": "primary",
    "population": 2424100,
    "id": 1860331871
  },
  {
    "city": "Accra",
    "city_ascii": "Accra",
    "lat": 5.6037,
    "lng": -0.187,
    "country": "Ghana",
    "iso2": "GH",
    "iso3": "GHA",
    "admin_name": "Greater Accra",
    "capital": "primary",
    "population": 2291352,
    "id": 1288299415
  },
  {
    "city": "Baku",
    "city_ascii": "Baku",
    "lat": 40.3667,
    "lng": 49.8352,
    "country": "Azerbaijan",
    "iso2": "AZ",
    "iso3": "AZE",
    "admin_name": "Bakı",
    "capital": "primary",
    "population": 2181800,
    "id": 1031946365
  },
  {
    "city": "Havana",
    "city_ascii": "Havana",
    "lat": 23.1367,
    "lng": -82.3589,
    "country": "Cuba",
    "iso2": "CU",
    "iso3": "CUB",
    "admin_name": "La Habana",
    "capital": "primary",
    "population": 2141652,
    "id": 1192752771
  },
  {
    "city": "Phnom Penh",
    "city_ascii": "Phnom Penh",
    "lat": 11.5696,
    "lng": 104.921,
    "country": "Cambodia",
    "iso2": "KH",
    "iso3": "KHM",
    "admin_name": "Phnom Penh",
    "capital": "primary",
    "population": 2129371,
    "id": 1116260534
  },
  {
    "city": "Mogadishu",
    "city_ascii": "Mogadishu",
    "lat": 2.0408,
    "lng": 45.3425,
    "country": "Somalia",
    "iso2": "SO",
    "iso3": "SOM",
    "admin_name": "Banaadir",
    "capital": "primary",
    "population": 2120000,
    "id": 1706893395
  },
  {
    "city": "Minsk",
    "city_ascii": "Minsk",
    "lat": 53.9022,
    "lng": 27.5618,
    "country": "Belarus",
    "iso2": "BY",
    "iso3": "BLR",
    "admin_name": "Minsk",
    "capital": "primary",
    "population": 2020600,
    "id": 1112348503
  },
  {
    "city": "Bamako",
    "city_ascii": "Bamako",
    "lat": 12.6458,
    "lng": -7.9922,
    "country": "Mali",
    "iso2": "ML",
    "iso3": "MLI",
    "admin_name": "Bamako",
    "capital": "primary",
    "population": 2009109,
    "id": 1466965925
  },
  {
    "city": "Quito",
    "city_ascii": "Quito",
    "lat": -0.2186,
    "lng": -78.5097,
    "country": "Ecuador",
    "iso2": "EC",
    "iso3": "ECU",
    "admin_name": "Pichincha",
    "capital": "primary",
    "population": 2011388,
    "id": 1218441993
  },
  {
    "city": "Caracas",
    "city_ascii": "Caracas",
    "lat": 10.5,
    "lng": -66.9333,
    "country": "Venezuela",
    "iso2": "VE",
    "iso3": "VEN",
    "admin_name": "Distrito Capital",
    "capital": "primary",
    "population": 1943901,
    "id": 1862748204
  },
  {
    "city": "Bucharest",
    "city_ascii": "Bucharest",
    "lat": 44.4,
    "lng": 26.0833,
    "country": "Romania",
    "iso2": "RO",
    "iso3": "ROU",
    "admin_name": "Bucureşti",
    "capital": "primary",
    "population": 1883425,
    "id": 1642414442
  },
  {
    "city": "Asunción",
    "city_ascii": "Asuncion",
    "lat": -25.3,
    "lng": -57.6333,
    "country": "Paraguay",
    "iso2": "PY",
    "iso3": "PRY",
    "admin_name": "Asunción",
    "capital": "primary",
    "population": 1870000,
    "id": 1600057911
  },
  {
    "city": "Vienna",
    "city_ascii": "Vienna",
    "lat": 48.2083,
    "lng": 16.3731,
    "country": "Austria",
    "iso2": "AT",
    "iso3": "AUT",
    "admin_name": "Wien",
    "capital": "primary",
    "population": 1840573,
    "id": 1040261752
  },
  {
    "city": "Brazzaville",
    "city_ascii": "Brazzaville",
    "lat": -4.2667,
    "lng": 15.2833,
    "country": "Congo (Brazzaville)",
    "iso2": "CG",
    "iso3": "COG",
    "admin_name": "Brazzaville",
    "capital": "primary",
    "population": 1827000,
    "id": 1178340306
  },
  {
    "city": "Warsaw",
    "city_ascii": "Warsaw",
    "lat": 52.2167,
    "lng": 21.0333,
    "country": "Poland",
    "iso2": "PL",
    "iso3": "POL",
    "admin_name": "Mazowieckie",
    "capital": "primary",
    "population": 1790658,
    "id": 1616024847
  },
  {
    "city": "Damascus",
    "city_ascii": "Damascus",
    "lat": 33.5131,
    "lng": 36.2919,
    "country": "Syria",
    "iso2": "SY",
    "iso3": "SYR",
    "admin_name": "Dimashq",
    "capital": "primary",
    "population": 1754000,
    "id": 1760685964
  },
  {
    "city": "Budapest",
    "city_ascii": "Budapest",
    "lat": 47.4983,
    "lng": 19.0408,
    "country": "Hungary",
    "iso2": "HU",
    "iso3": "HUN",
    "admin_name": "Budapest",
    "capital": "primary",
    "population": 1752286,
    "id": 1348611435
  },
  {
    "city": "Lusaka",
    "city_ascii": "Lusaka",
    "lat": -15.4167,
    "lng": 28.2833,
    "country": "Zambia",
    "iso2": "ZM",
    "iso3": "ZMB",
    "admin_name": "Lusaka",
    "capital": "primary",
    "population": 1742979,
    "id": 1894157390
  },
  {
    "city": "Conakry",
    "city_ascii": "Conakry",
    "lat": 9.5092,
    "lng": -13.7122,
    "country": "Guinea",
    "iso2": "GN",
    "iso3": "GIN",
    "admin_name": "Conakry",
    "capital": "primary",
    "population": 1667864,
    "id": 1324568159
  },
  {
    "city": "Kampala",
    "city_ascii": "Kampala",
    "lat": 0.3136,
    "lng": 32.5811,
    "country": "Uganda",
    "iso2": "UG",
    "iso3": "UGA",
    "admin_name": "Kampala",
    "capital": "primary",
    "population": 1659600,
    "id": 1800406299
  },
  {
    "city": "Rabat",
    "city_ascii": "Rabat",
    "lat": 34.0253,
    "lng": -6.8361,
    "country": "Morocco",
    "iso2": "MA",
    "iso3": "MAR",
    "admin_name": "Rabat-Salé-Kénitra",
    "capital": "primary",
    "population": 1628000,
    "id": 1504023252
  },
  {
    "city": "Ouagadougou",
    "city_ascii": "Ouagadougou",
    "lat": 12.3572,
    "lng": -1.5353,
    "country": "Burkina Faso",
    "iso2": "BF",
    "iso3": "BFA",
    "admin_name": "Centre",
    "capital": "primary",
    "population": 1626950,
    "id": 1854029208
  },
  {
    "city": "Harare",
    "city_ascii": "Harare",
    "lat": -17.8292,
    "lng": 31.0522,
    "country": "Zimbabwe",
    "iso2": "ZW",
    "iso3": "ZWE",
    "admin_name": "Harare",
    "capital": "primary",
    "population": 1606000,
    "id": 1716196799
  },
  {
    "city": "Muscat",
    "city_ascii": "Muscat",
    "lat": 23.6139,
    "lng": 58.5922,
    "country": "Oman",
    "iso2": "OM",
    "iso3": "OMN",
    "admin_name": "Masqaţ",
    "capital": "primary",
    "population": 1421409,
    "id": 1512035506
  },
  {
    "city": "The Hague",
    "city_ascii": "The Hague",
    "lat": 52.08,
    "lng": 4.27,
    "country": "Netherlands",
    "iso2": "NL",
    "iso3": "NLD",
    "admin_name": "Zuid-Holland",
    "capital": "primary",
    "population": 1406000,
    "id": 1528799905
  },
  {
    "city": "Ulaanbaatar",
    "city_ascii": "Ulaanbaatar",
    "lat": 47.9203,
    "lng": 106.9172,
    "country": "Mongolia",
    "iso2": "MN",
    "iso3": "MNG",
    "admin_name": "Ulaanbaatar",
    "capital": "primary",
    "population": 1396288,
    "id": 1496024767
  },
  {
    "city": "Belgrade",
    "city_ascii": "Belgrade",
    "lat": 44.8167,
    "lng": 20.4667,
    "country": "Serbia",
    "iso2": "RS",
    "iso3": "SRB",
    "admin_name": "Beograd",
    "capital": "primary",
    "population": 1378682,
    "id": 1688374696
  },
  {
    "city": "Islamabad",
    "city_ascii": "Islamabad",
    "lat": 33.6989,
    "lng": 73.0369,
    "country": "Pakistan",
    "iso2": "PK",
    "iso3": "PAK",
    "admin_name": "Islāmābād",
    "capital": "primary",
    "population": 1365000,
    "id": 1586306717
  },
  {
    "city": "Sofia",
    "city_ascii": "Sofia",
    "lat": 42.6975,
    "lng": 23.3241,
    "country": "Bulgaria",
    "iso2": "BG",
    "iso3": "BGR",
    "admin_name": "Sofia-Grad",
    "capital": "primary",
    "population": 1355142,
    "id": 1100762037
  },
  {
    "city": "Prague",
    "city_ascii": "Prague",
    "lat": 50.0833,
    "lng": 14.4167,
    "country": "Czechia",
    "iso2": "CZ",
    "iso3": "CZE",
    "admin_name": "Praha, Hlavní Město",
    "capital": "primary",
    "population": 1324277,
    "id": 1203744823
  },
  {
    "city": "Montevideo",
    "city_ascii": "Montevideo",
    "lat": -34.8667,
    "lng": -56.1667,
    "country": "Uruguay",
    "iso2": "UY",
    "iso3": "URY",
    "admin_name": "Montevideo",
    "capital": "primary",
    "population": 1319108,
    "id": 1858107000
  },
  {
    "city": "Doha",
    "city_ascii": "Doha",
    "lat": 25.3,
    "lng": 51.5333,
    "country": "Qatar",
    "iso2": "QA",
    "iso3": "QAT",
    "admin_name": "Ad Dawḩah",
    "capital": "primary",
    "population": 1312947,
    "id": 1634459660
  },
  {
    "city": "Abuja",
    "city_ascii": "Abuja",
    "lat": 9.0556,
    "lng": 7.4914,
    "country": "Nigeria",
    "iso2": "NG",
    "iso3": "NGA",
    "admin_name": "Federal Capital Territory",
    "capital": "primary",
    "population": 1235880,
    "id": 1566342270
  },
  {
    "city": "Tunis",
    "city_ascii": "Tunis",
    "lat": 36.8008,
    "lng": 10.18,
    "country": "Tunisia",
    "iso2": "TN",
    "iso3": "TUN",
    "admin_name": "Tunis",
    "capital": "primary",
    "population": 1200000,
    "id": 1788742103
  },
  {
    "city": "Maputo",
    "city_ascii": "Maputo",
    "lat": -25.9153,
    "lng": 32.5764,
    "country": "Mozambique",
    "iso2": "MZ",
    "iso3": "MOZ",
    "admin_name": "Maputo",
    "capital": "primary",
    "population": 1191613,
    "id": 1508074843
  },
  {
    "city": "Dublin",
    "city_ascii": "Dublin",
    "lat": 53.3425,
    "lng": -6.2658,
    "country": "Ireland",
    "iso2": "IE",
    "iso3": "IRL",
    "admin_name": "Dublin",
    "capital": "primary",
    "population": 1173179,
    "id": 1372595407
  },
  {
    "city": "Nay Pyi Taw",
    "city_ascii": "Nay Pyi Taw",
    "lat": 19.8028,
    "lng": 96.1583,
    "country": "Burma",
    "iso2": "MM",
    "iso3": "MMR",
    "admin_name": "Nay Pyi Taw",
    "capital": "primary",
    "population": 1160242,
    "id": 1104838105
  },
  {
    "city": "Dakar",
    "city_ascii": "Dakar",
    "lat": 14.7319,
    "lng": -17.4572,
    "country": "Senegal",
    "iso2": "SN",
    "iso3": "SEN",
    "admin_name": "Dakar",
    "capital": "primary",
    "population": 1146053,
    "id": 1686604760
  },
  {
    "city": "Tegucigalpa",
    "city_ascii": "Tegucigalpa",
    "lat": 14.0942,
    "lng": -87.2067,
    "country": "Honduras",
    "iso2": "HN",
    "iso3": "HND",
    "admin_name": "Francisco Morazán",
    "capital": "primary",
    "population": 1126534,
    "id": 1340344059
  },
  {
    "city": "Tripoli",
    "city_ascii": "Tripoli",
    "lat": 32.8752,
    "lng": 13.1875,
    "country": "Libya",
    "iso2": "LY",
    "iso3": "LBY",
    "admin_name": "Ţarābulus",
    "capital": "primary",
    "population": 1126000,
    "id": 1434201852
  },
  {
    "city": "Tbilisi",
    "city_ascii": "Tbilisi",
    "lat": 41.7225,
    "lng": 44.7925,
    "country": "Georgia",
    "iso2": "GE",
    "iso3": "GEO",
    "admin_name": "Tbilisi",
    "capital": "primary",
    "population": 1118035,
    "id": 1268203191
  },
  {
    "city": "N’Djamena",
    "city_ascii": "N'Djamena",
    "lat": 12.11,
    "lng": 15.05,
    "country": "Chad",
    "iso2": "TD",
    "iso3": "TCD",
    "admin_name": "Ville de N’Djaména",
    "capital": "primary",
    "population": 1092066,
    "id": 1148708596
  },
  {
    "city": "Copenhagen",
    "city_ascii": "Copenhagen",
    "lat": 55.6786,
    "lng": 12.5635,
    "country": "Denmark",
    "iso2": "DK",
    "iso3": "DNK",
    "admin_name": "Hovedstaden",
    "capital": "primary",
    "population": 1085000,
    "id": 1208763942
  },
  {
    "city": "Yerevan",
    "city_ascii": "Yerevan",
    "lat": 40.1814,
    "lng": 44.5144,
    "country": "Armenia",
    "iso2": "AM",
    "iso3": "ARM",
    "admin_name": "Yerevan",
    "capital": "primary",
    "population": 1075800,
    "id": 1051074169
  },
  {
    "city": "Nur-Sultan",
    "city_ascii": "Nur-Sultan",
    "lat": 51.1333,
    "lng": 71.4333,
    "country": "Kazakhstan",
    "iso2": "KZ",
    "iso3": "KAZ",
    "admin_name": "Astana",
    "capital": "primary",
    "population": 1078362,
    "id": 1398516045
  },
  {
    "city": "Nouakchott",
    "city_ascii": "Nouakchott",
    "lat": 18.0783,
    "lng": -15.9744,
    "country": "Mauritania",
    "iso2": "MR",
    "iso3": "MRT",
    "admin_name": "",
    "capital": "primary",
    "population": 1077169,
    "id": 1478414984
  },
  {
    "city": "Bishkek",
    "city_ascii": "Bishkek",
    "lat": 42.8667,
    "lng": 74.5667,
    "country": "Kyrgyzstan",
    "iso2": "KG",
    "iso3": "KGZ",
    "admin_name": "Bishkek",
    "capital": "primary",
    "population": 1027200,
    "id": 1417191971
  },
  {
    "city": "Amsterdam",
    "city_ascii": "Amsterdam",
    "lat": 52.35,
    "lng": 4.9166,
    "country": "Netherlands",
    "iso2": "NL",
    "iso3": "NLD",
    "admin_name": "Noord-Holland",
    "capital": "primary",
    "population": 1031000,
    "id": 1528355309
  },
  {
    "city": "Ashgabat",
    "city_ascii": "Ashgabat",
    "lat": 37.95,
    "lng": 58.3833,
    "country": "Turkmenistan",
    "iso2": "TM",
    "iso3": "TKM",
    "admin_name": "Ahal",
    "capital": "primary",
    "population": 1031992,
    "id": 1795049992
  },
  {
    "city": "Niamey",
    "city_ascii": "Niamey",
    "lat": 13.5086,
    "lng": 2.1111,
    "country": "Niger",
    "iso2": "NE",
    "iso3": "NER",
    "admin_name": "Niamey",
    "capital": "primary",
    "population": 1026848,
    "id": 1562932886
  },
  {
    "city": "Managua",
    "city_ascii": "Managua",
    "lat": 12.15,
    "lng": -86.2667,
    "country": "Nicaragua",
    "iso2": "NI",
    "iso3": "NIC",
    "admin_name": "Managua",
    "capital": "primary",
    "population": 1028808,
    "id": 1558296252
  },
  {
    "city": "Monrovia",
    "city_ascii": "Monrovia",
    "lat": 6.3106,
    "lng": -10.8047,
    "country": "Liberia",
    "iso2": "LR",
    "iso3": "LBR",
    "admin_name": "Montserrado",
    "capital": "primary",
    "population": 1021762,
    "id": 1430477826
  },
  {
    "city": "Port-au-Prince",
    "city_ascii": "Port-au-Prince",
    "lat": 18.5425,
    "lng": -72.3386,
    "country": "Haiti",
    "iso2": "HT",
    "iso3": "HTI",
    "admin_name": "Ouest",
    "capital": "primary",
    "population": 987310,
    "id": 1332401940
  },
  {
    "city": "Kathmandu",
    "city_ascii": "Kathmandu",
    "lat": 27.7167,
    "lng": 85.3667,
    "country": "Nepal",
    "iso2": "NP",
    "iso3": "NPL",
    "admin_name": "Bāgmatī",
    "capital": "primary",
    "population": 975453,
    "id": 1524589448
  },
  {
    "city": "Abu Dhabi",
    "city_ascii": "Abu Dhabi",
    "lat": 24.4781,
    "lng": 54.3686,
    "country": "United Arab Emirates",
    "iso2": "AE",
    "iso3": "ARE",
    "admin_name": "Abū Z̧aby",
    "capital": "primary",
    "population": 1000000,
    "id": 1784176710
  },
  {
    "city": "Stockholm",
    "city_ascii": "Stockholm",
    "lat": 59.3294,
    "lng": 18.0686,
    "country": "Sweden",
    "iso2": "SE",
    "iso3": "SWE",
    "admin_name": "Stockholm",
    "capital": "primary",
    "population": 972647,
    "id": 1752425602
  },
  {
    "city": "Asmara",
    "city_ascii": "Asmara",
    "lat": 15.3333,
    "lng": 38.9167,
    "country": "Eritrea",
    "iso2": "ER",
    "iso3": "ERI",
    "admin_name": "Ma’ākel",
    "capital": "primary",
    "population": 963000,
    "id": 1232791236
  },
  {
    "city": "Freetown",
    "city_ascii": "Freetown",
    "lat": 8.4833,
    "lng": -13.2331,
    "country": "Sierra Leone",
    "iso2": "SL",
    "iso3": "SLE",
    "admin_name": "Western Area",
    "capital": "primary",
    "population": 951000,
    "id": 1694085071
  },
  {
    "city": "Jerusalem",
    "city_ascii": "Jerusalem",
    "lat": 31.7833,
    "lng": 35.2167,
    "country": "Israel",
    "iso2": "IL",
    "iso3": "ISR",
    "admin_name": "Southern",
    "capital": "primary",
    "population": 919438,
    "id": 1376261644
  },
  {
    "city": "Panama City",
    "city_ascii": "Panama City",
    "lat": 9,
    "lng": -79.5,
    "country": "Panama",
    "iso2": "PA",
    "iso3": "PAN",
    "admin_name": "Panamá",
    "capital": "primary",
    "population": 880691,
    "id": 1591672475
  },
  {
    "city": "Lomé",
    "city_ascii": "Lome",
    "lat": 6.1319,
    "lng": 1.2228,
    "country": "Togo",
    "iso2": "TG",
    "iso3": "TGO",
    "admin_name": "Maritime",
    "capital": "primary",
    "population": 837437,
    "id": 1768409132
  },
  {
    "city": "Libreville",
    "city_ascii": "Libreville",
    "lat": 0.3901,
    "lng": 9.4544,
    "country": "Gabon",
    "iso2": "GA",
    "iso3": "GAB",
    "admin_name": "Estuaire",
    "capital": "primary",
    "population": 797003,
    "id": 1266952885
  },
  {
    "city": "Zagreb",
    "city_ascii": "Zagreb",
    "lat": 45.8,
    "lng": 15.95,
    "country": "Croatia",
    "iso2": "HR",
    "iso3": "HRV",
    "admin_name": "Zagreb, Grad",
    "capital": "primary",
    "population": 790017,
    "id": 1191233290
  },
  {
    "city": "Dushanbe",
    "city_ascii": "Dushanbe",
    "lat": 38.5731,
    "lng": 68.7864,
    "country": "Tajikistan",
    "iso2": "TJ",
    "iso3": "TJK",
    "admin_name": "Dushanbe",
    "capital": "primary",
    "population": 780000,
    "id": 1762930616
  },
  {
    "city": "Lilongwe",
    "city_ascii": "Lilongwe",
    "lat": -13.9833,
    "lng": 33.7833,
    "country": "Malawi",
    "iso2": "MW",
    "iso3": "MWI",
    "admin_name": "Lilongwe",
    "capital": "primary",
    "population": 781538,
    "id": 1454688499
  },
  {
    "city": "Cotonou",
    "city_ascii": "Cotonou",
    "lat": 6.4,
    "lng": 2.52,
    "country": "Benin",
    "iso2": "BJ",
    "iso3": "BEN",
    "admin_name": "Littoral",
    "capital": "primary",
    "population": 762000,
    "id": 1204955174
  },
  {
    "city": "Vientiane",
    "city_ascii": "Vientiane",
    "lat": 17.9667,
    "lng": 102.6,
    "country": "Laos",
    "iso2": "LA",
    "iso3": "LAO",
    "admin_name": "Viangchan",
    "capital": "primary",
    "population": 760000,
    "id": 1418732714
  },
  {
    "city": "Colombo",
    "city_ascii": "Colombo",
    "lat": 6.9167,
    "lng": 79.8333,
    "country": "Sri Lanka",
    "iso2": "LK",
    "iso3": "LKA",
    "admin_name": "Western",
    "capital": "primary",
    "population": 752993,
    "id": 1144251314
  },
  {
    "city": "Kigali",
    "city_ascii": "Kigali",
    "lat": -1.9536,
    "lng": 30.0606,
    "country": "Rwanda",
    "iso2": "RW",
    "iso3": "RWA",
    "admin_name": "Kigali",
    "capital": "primary",
    "population": 745261,
    "id": 1646923541
  },
  {
    "city": "Pretoria",
    "city_ascii": "Pretoria",
    "lat": -25.7464,
    "lng": 28.1881,
    "country": "South Africa",
    "iso2": "ZA",
    "iso3": "ZAF",
    "admin_name": "Gauteng",
    "capital": "primary",
    "population": 741651,
    "id": 1710176249
  },
  {
    "city": "Bangui",
    "city_ascii": "Bangui",
    "lat": 4.3732,
    "lng": 18.5628,
    "country": "Central African Republic",
    "iso2": "CF",
    "iso3": "CAF",
    "admin_name": "Bangui",
    "capital": "primary",
    "population": 734350,
    "id": 1140080881
  },
  {
    "city": "Riga",
    "city_ascii": "Riga",
    "lat": 56.9475,
    "lng": 24.1069,
    "country": "Latvia",
    "iso2": "LV",
    "iso3": "LVA",
    "admin_name": "Rīga",
    "capital": "primary",
    "population": 698529,
    "id": 1428586192
  },
  {
    "city": "Oslo",
    "city_ascii": "Oslo",
    "lat": 59.9111,
    "lng": 10.7528,
    "country": "Norway",
    "iso2": "NO",
    "iso3": "NOR",
    "admin_name": "Oslo",
    "capital": "primary",
    "population": 693494,
    "id": 1578324706
  },
  {
    "city": "Chisinau",
    "city_ascii": "Chisinau",
    "lat": 47.0056,
    "lng": 28.8575,
    "country": "Moldova",
    "iso2": "MD",
    "iso3": "MDA",
    "admin_name": "Chişinău",
    "capital": "primary",
    "population": 685900,
    "id": 1498011437
  },
  {
    "city": "Athens",
    "city_ascii": "Athens",
    "lat": 37.9794,
    "lng": 23.7161,
    "country": "Greece",
    "iso2": "GR",
    "iso3": "GRC",
    "admin_name": "Attikí",
    "capital": "primary",
    "population": 664046,
    "id": 1300715560
  },
  {
    "city": "Bujumbura",
    "city_ascii": "Bujumbura",
    "lat": -3.3825,
    "lng": 29.3611,
    "country": "Burundi",
    "iso2": "BI",
    "iso3": "BDI",
    "admin_name": "Bujumbura Mairie",
    "capital": "primary",
    "population": 658859,
    "id": 1108101689
  },
  {
    "city": "Helsinki",
    "city_ascii": "Helsinki",
    "lat": 60.1756,
    "lng": 24.9342,
    "country": "Finland",
    "iso2": "FI",
    "iso3": "FIN",
    "admin_name": "Uusimaa",
    "capital": "primary",
    "population": 642045,
    "id": 1246177997
  },
  {
    "city": "Skopje",
    "city_ascii": "Skopje",
    "lat": 41.9833,
    "lng": 21.4333,
    "country": "Macedonia",
    "iso2": "MK",
    "iso3": "MKD",
    "admin_name": "Skopje",
    "capital": "primary",
    "population": 640000,
    "id": 1807600615
  },
  {
    "city": "Kuwait City",
    "city_ascii": "Kuwait City",
    "lat": 29.375,
    "lng": 47.98,
    "country": "Kuwait",
    "iso2": "KW",
    "iso3": "KWT",
    "admin_name": "Al ‘Āşimah",
    "capital": "primary",
    "population": 637411,
    "id": 1414102075
  },
  {
    "city": "Kingston",
    "city_ascii": "Kingston",
    "lat": 17.9714,
    "lng": -76.7931,
    "country": "Jamaica",
    "iso2": "JM",
    "iso3": "JAM",
    "admin_name": "Kingston",
    "capital": "primary",
    "population": 580000,
    "id": 1388709177
  },
  {
    "city": "Vilnius",
    "city_ascii": "Vilnius",
    "lat": 54.6833,
    "lng": 25.2833,
    "country": "Lithuania",
    "iso2": "LT",
    "iso3": "LTU",
    "admin_name": "Vilniaus Miestas",
    "capital": "primary",
    "population": 574147,
    "id": 1440887149
  },
  {
    "city": "San Salvador",
    "city_ascii": "San Salvador",
    "lat": 13.6989,
    "lng": -89.1914,
    "country": "El Salvador",
    "iso2": "SV",
    "iso3": "SLV",
    "admin_name": "San Salvador",
    "capital": "primary",
    "population": 567698,
    "id": 1222647454
  },
  {
    "city": "Djibouti",
    "city_ascii": "Djibouti",
    "lat": 11.595,
    "lng": 43.1481,
    "country": "Djibouti",
    "iso2": "DJ",
    "iso3": "DJI",
    "admin_name": "Djibouti",
    "capital": "primary",
    "population": 562000,
    "id": 1262028958
  },
  {
    "city": "Lisbon",
    "city_ascii": "Lisbon",
    "lat": 38.7452,
    "lng": -9.1604,
    "country": "Portugal",
    "iso2": "PT",
    "iso3": "PRT",
    "admin_name": "Lisboa",
    "capital": "primary",
    "population": 506654,
    "id": 1620619017
  },
  {
    "city": "Tallinn",
    "city_ascii": "Tallinn",
    "lat": 59.4372,
    "lng": 24.745,
    "country": "Estonia",
    "iso2": "EE",
    "iso3": "EST",
    "admin_name": "Harjumaa",
    "capital": "primary",
    "population": 434562,
    "id": 1233260021
  },
  {
    "city": "Cape Town",
    "city_ascii": "Cape Town",
    "lat": -33.925,
    "lng": 18.425,
    "country": "South Africa",
    "iso2": "ZA",
    "iso3": "ZAF",
    "admin_name": "Western Cape",
    "capital": "primary",
    "population": 433688,
    "id": 1710680650
  },
  {
    "city": "Bratislava",
    "city_ascii": "Bratislava",
    "lat": 48.1447,
    "lng": 17.1128,
    "country": "Slovakia",
    "iso2": "SK",
    "iso3": "SVK",
    "admin_name": "Bratislavský",
    "capital": "primary",
    "population": 429564,
    "id": 1703195001
  },
  {
    "city": "Tirana",
    "city_ascii": "Tirana",
    "lat": 41.33,
    "lng": 19.82,
    "country": "Albania",
    "iso2": "AL",
    "iso3": "ALB",
    "admin_name": "Tiranë",
    "capital": "primary",
    "population": 418495,
    "id": 1008162156
  },
  {
    "city": "Canberra",
    "city_ascii": "Canberra",
    "lat": -35.2931,
    "lng": 149.1269,
    "country": "Australia",
    "iso2": "AU",
    "iso3": "AUS",
    "admin_name": "Australian Capital Territory",
    "capital": "primary",
    "population": 426704,
    "id": 1036142029
  },
  {
    "city": "Wellington",
    "city_ascii": "Wellington",
    "lat": -41.2889,
    "lng": 174.7772,
    "country": "New Zealand",
    "iso2": "NZ",
    "iso3": "NZL",
    "admin_name": "Wellington",
    "capital": "primary",
    "population": 418500,
    "id": 1554772152
  },
  {
    "city": "Beirut",
    "city_ascii": "Beirut",
    "lat": 33.8869,
    "lng": 35.5131,
    "country": "Lebanon",
    "iso2": "LB",
    "iso3": "LBN",
    "admin_name": "Beyrouth",
    "capital": "primary",
    "population": 361366,
    "id": 1422847713
  },
  {
    "city": "Dodoma",
    "city_ascii": "Dodoma",
    "lat": -6.25,
    "lng": 35.75,
    "country": "Tanzania",
    "iso2": "TZ",
    "iso3": "TZA",
    "admin_name": "Dodoma",
    "capital": "primary",
    "population": 410956,
    "id": 1834288497
  },
  {
    "city": "Bissau",
    "city_ascii": "Bissau",
    "lat": 11.8592,
    "lng": -15.5956,
    "country": "Guinea-Bissau",
    "iso2": "GW",
    "iso3": "GNB",
    "admin_name": "Bissau",
    "capital": "primary",
    "population": 395954,
    "id": 1624168850
  },
  {
    "city": "Juba",
    "city_ascii": "Juba",
    "lat": 4.85,
    "lng": 31.6,
    "country": "South Sudan",
    "iso2": "SS",
    "iso3": "SSD",
    "admin_name": "Central Equatoria",
    "capital": "primary",
    "population": 372410,
    "id": 1728444337
  },
  {
    "city": "Port Moresby",
    "city_ascii": "Port Moresby",
    "lat": -9.4789,
    "lng": 147.1494,
    "country": "Papua New Guinea",
    "iso2": "PG",
    "iso3": "PNG",
    "admin_name": "National Capital",
    "capital": "primary",
    "population": 364125,
    "id": 1598685395
  },
  {
    "city": "Yamoussoukro",
    "city_ascii": "Yamoussoukro",
    "lat": 6.8161,
    "lng": -5.2742,
    "country": "Côte D’Ivoire",
    "iso2": "CI",
    "iso3": "CIV",
    "admin_name": "Yamoussoukro",
    "capital": "primary",
    "population": 355573,
    "id": 1384683557
  },
  {
    "city": "Maseru",
    "city_ascii": "Maseru",
    "lat": -29.31,
    "lng": 27.48,
    "country": "Lesotho",
    "iso2": "LS",
    "iso3": "LSO",
    "admin_name": "Maseru",
    "capital": "primary",
    "population": 330790,
    "id": 1426977668
  },
  {
    "city": "Nicosia",
    "city_ascii": "Nicosia",
    "lat": 35.1725,
    "lng": 33.365,
    "country": "Cyprus",
    "iso2": "CY",
    "iso3": "CYP",
    "admin_name": "Lefkosía",
    "capital": "primary",
    "population": 330000,
    "id": 1196944155
  },
  {
    "city": "Windhoek",
    "city_ascii": "Windhoek",
    "lat": -22.57,
    "lng": 17.0836,
    "country": "Namibia",
    "iso2": "NA",
    "iso3": "NAM",
    "admin_name": "Khomas",
    "capital": "primary",
    "population": 322500,
    "id": 1516802003
  },
  {
    "city": "Porto-Novo",
    "city_ascii": "Porto-Novo",
    "lat": 6.4833,
    "lng": 2.6167,
    "country": "Benin",
    "iso2": "BJ",
    "iso3": "BEN",
    "admin_name": "Ouémé",
    "capital": "primary",
    "population": 300000,
    "id": 1204172060
  },
  {
    "city": "Sucre",
    "city_ascii": "Sucre",
    "lat": -19.0431,
    "lng": -65.2592,
    "country": "Bolivia",
    "iso2": "BO",
    "iso3": "BOL",
    "admin_name": "Chuquisaca",
    "capital": "primary",
    "population": 300000,
    "id": 1068823873
  },
  {
    "city": "San José",
    "city_ascii": "San Jose",
    "lat": 9.9333,
    "lng": -84.0833,
    "country": "Costa Rica",
    "iso2": "CR",
    "iso3": "CRI",
    "admin_name": "San José",
    "capital": "primary",
    "population": 288054,
    "id": 1188749877
  },
  {
    "city": "Ljubljana",
    "city_ascii": "Ljubljana",
    "lat": 46.05,
    "lng": 14.5167,
    "country": "Slovenia",
    "iso2": "SI",
    "iso3": "SVN",
    "admin_name": "Ljubljana",
    "capital": "primary",
    "population": 284355,
    "id": 1705917455
  },
  {
    "city": "Sarajevo",
    "city_ascii": "Sarajevo",
    "lat": 43.8667,
    "lng": 18.4167,
    "country": "Bosnia And Herzegovina",
    "iso2": "BA",
    "iso3": "BIH",
    "admin_name": "Bosnia and Herzegovina, Federation of",
    "capital": "primary",
    "population": 275524,
    "id": 1070966777
  },
  {
    "city": "Nassau",
    "city_ascii": "Nassau",
    "lat": 25.0667,
    "lng": -77.3333,
    "country": "Bahamas, The",
    "iso2": "BS",
    "iso3": "BHS",
    "admin_name": "",
    "capital": "primary",
    "population": 274400,
    "id": 1044318561
  },
  {
    "city": "Bloemfontein",
    "city_ascii": "Bloemfontein",
    "lat": -29.1,
    "lng": 26.2167,
    "country": "South Africa",
    "iso2": "ZA",
    "iso3": "ZAF",
    "admin_name": "Free State",
    "capital": "primary",
    "population": 256185,
    "id": 1710495933
  },
  {
    "city": "Gaborone",
    "city_ascii": "Gaborone",
    "lat": -24.6569,
    "lng": 25.9086,
    "country": "Botswana",
    "iso2": "BW",
    "iso3": "BWA",
    "admin_name": "Gaborone",
    "capital": "primary",
    "population": 231626,
    "id": 1072756768
  },
  {
    "city": "Paramaribo",
    "city_ascii": "Paramaribo",
    "lat": 5.8667,
    "lng": -55.1667,
    "country": "Suriname",
    "iso2": "SR",
    "iso3": "SUR",
    "admin_name": "Paramaribo",
    "capital": "primary",
    "population": 223757,
    "id": 1740518660
  },
  {
    "city": "Dili",
    "city_ascii": "Dili",
    "lat": -8.5586,
    "lng": 125.5736,
    "country": "Timor-Leste",
    "iso2": "TL",
    "iso3": "TLS",
    "admin_name": "Díli",
    "capital": "primary",
    "population": 222323,
    "id": 1626308942
  },
  {
    "city": "Pristina",
    "city_ascii": "Pristina",
    "lat": 42.6667,
    "lng": 21.1667,
    "country": "Kosovo",
    "iso2": "XK",
    "iso3": "XKS",
    "admin_name": "Prishtinë",
    "capital": "primary",
    "population": 204725,
    "id": 1901760068
  },
  {
    "city": "Georgetown",
    "city_ascii": "Georgetown",
    "lat": 6.7833,
    "lng": -58.1667,
    "country": "Guyana",
    "iso2": "GY",
    "iso3": "GUY",
    "admin_name": "Demerara-Mahaica",
    "capital": "primary",
    "population": 200500,
    "id": 1328160906
  },
  {
    "city": "Malabo",
    "city_ascii": "Malabo",
    "lat": 3.7521,
    "lng": 8.7737,
    "country": "Equatorial Guinea",
    "iso2": "GQ",
    "iso3": "GNQ",
    "admin_name": "Bioko Norte",
    "capital": "primary",
    "population": 187302,
    "id": 1226861333
  },
  {
    "city": "Brussels",
    "city_ascii": "Brussels",
    "lat": 50.8467,
    "lng": 4.3517,
    "country": "Belgium",
    "iso2": "BE",
    "iso3": "BEL",
    "admin_name": "Brussels-Capital Region",
    "capital": "primary",
    "population": 185103,
    "id": 1056469830
  },
  {
    "city": "Male",
    "city_ascii": "Male",
    "lat": 4.175,
    "lng": 73.5083,
    "country": "Maldives",
    "iso2": "MV",
    "iso3": "MDV",
    "admin_name": "Maale",
    "capital": "primary",
    "population": 133019,
    "id": 1462441685
  },
  {
    "city": "Podgorica",
    "city_ascii": "Podgorica",
    "lat": 42.4397,
    "lng": 19.2661,
    "country": "Montenegro",
    "iso2": "ME",
    "iso3": "MNE",
    "admin_name": "Podgorica",
    "capital": "primary",
    "population": 174515,
    "id": 1499454516
  },
  {
    "city": "Manama",
    "city_ascii": "Manama",
    "lat": 26.2167,
    "lng": 50.5831,
    "country": "Bahrain",
    "iso2": "BH",
    "iso3": "BHR",
    "admin_name": "Al ‘Āşimah",
    "capital": "primary",
    "population": 157474,
    "id": 1048989486
  },
  {
    "city": "Port Louis",
    "city_ascii": "Port Louis",
    "lat": -20.1667,
    "lng": 57.5,
    "country": "Mauritius",
    "iso2": "MU",
    "iso3": "MUS",
    "admin_name": "Port Louis",
    "capital": "primary",
    "population": 149194,
    "id": 1480131261
  },
  {
    "city": "New Delhi",
    "city_ascii": "New Delhi",
    "lat": 28.7,
    "lng": 77.2,
    "country": "India",
    "iso2": "IN",
    "iso3": "IND",
    "admin_name": "Delhi",
    "capital": "primary",
    "population": 142004,
    "id": 1356215164
  },
  {
    "city": "Bern",
    "city_ascii": "Bern",
    "lat": 46.948,
    "lng": 7.4474,
    "country": "Switzerland",
    "iso2": "CH",
    "iso3": "CHE",
    "admin_name": "Bern",
    "capital": "primary",
    "population": 133798,
    "id": 1756374318
  },
  {
    "city": "Reykjavík",
    "city_ascii": "Reykjavik",
    "lat": 64.1475,
    "lng": -21.935,
    "country": "Iceland",
    "iso2": "IS",
    "iso3": "ISL",
    "admin_name": "",
    "capital": "primary",
    "population": 128793,
    "id": 1352327190
  },
  {
    "city": "Praia",
    "city_ascii": "Praia",
    "lat": 14.9177,
    "lng": -23.5092,
    "country": "Cabo Verde",
    "iso2": "CV",
    "iso3": "CPV",
    "admin_name": "Praia",
    "capital": "primary",
    "population": 127832,
    "id": 1132398770
  },
  {
    "city": "Luxembourg",
    "city_ascii": "Luxembourg",
    "lat": 49.6106,
    "lng": 6.1328,
    "country": "Luxembourg",
    "iso2": "LU",
    "iso3": "LUX",
    "admin_name": "Luxembourg",
    "capital": "primary",
    "population": 122273,
    "id": 1442262731
  },
  {
    "city": "Sri Jayewardenepura Kotte",
    "city_ascii": "Sri Jayewardenepura Kotte",
    "lat": 6.9,
    "lng": 79.9164,
    "country": "Sri Lanka",
    "iso2": "LK",
    "iso3": "LKA",
    "admin_name": "Western",
    "capital": "primary",
    "population": 115826,
    "id": 1144239330
  },
  {
    "city": "Bridgetown",
    "city_ascii": "Bridgetown",
    "lat": 13.0975,
    "lng": -59.6167,
    "country": "Barbados",
    "iso2": "BB",
    "iso3": "BRB",
    "admin_name": "Saint Michael",
    "capital": "primary",
    "population": 110000,
    "id": 1052274244
  },
  {
    "city": "Moroni",
    "city_ascii": "Moroni",
    "lat": -11.7036,
    "lng": 43.2536,
    "country": "Comoros",
    "iso2": "KM",
    "iso3": "COM",
    "admin_name": "Grande Comore",
    "capital": "primary",
    "population": 111329,
    "id": 1174793581
  },
  {
    "city": "Thimphu",
    "city_ascii": "Thimphu",
    "lat": 27.4833,
    "lng": 89.6333,
    "country": "Bhutan",
    "iso2": "BT",
    "iso3": "BTN",
    "admin_name": "Thimphu",
    "capital": "primary",
    "population": 104000,
    "id": 1064010361
  },
  {
    "city": "Mbabane",
    "city_ascii": "Mbabane",
    "lat": -26.3167,
    "lng": 31.1333,
    "country": "Swaziland",
    "iso2": "SZ",
    "iso3": "SWZ",
    "admin_name": "Hhohho",
    "capital": "primary",
    "population": 90138,
    "id": 1748811945
  },
  {
    "city": "Honiara",
    "city_ascii": "Honiara",
    "lat": -9.4333,
    "lng": 159.95,
    "country": "Solomon Islands",
    "iso2": "SB",
    "iso3": "SLB",
    "admin_name": "Honiara",
    "capital": "primary",
    "population": 84520,
    "id": 1090737486
  },
  {
    "city": "Suva",
    "city_ascii": "Suva",
    "lat": -18.1333,
    "lng": 178.4333,
    "country": "Fiji",
    "iso2": "FJ",
    "iso3": "FJI",
    "admin_name": "Rewa",
    "capital": "primary",
    "population": 88271,
    "id": 1242615095
  },
  {
    "city": "Castries",
    "city_ascii": "Castries",
    "lat": 14.0167,
    "lng": -60.9833,
    "country": "Saint Lucia",
    "iso2": "LC",
    "iso3": "LCA",
    "admin_name": "Castries",
    "capital": "primary",
    "population": 70000,
    "id": 1662922505
  },
  {
    "city": "São Tomé",
    "city_ascii": "Sao Tome",
    "lat": 0.3333,
    "lng": 6.7333,
    "country": "Sao Tome And Principe",
    "iso2": "ST",
    "iso3": "STP",
    "admin_name": "São Tomé",
    "capital": "primary",
    "population": 56166,
    "id": 1678301324
  },
  {
    "city": "Port-Vila",
    "city_ascii": "Port-Vila",
    "lat": -17.75,
    "lng": 168.3,
    "country": "Vanuatu",
    "iso2": "VU",
    "iso3": "VUT",
    "admin_name": "Shefa",
    "capital": "primary",
    "population": 51437,
    "id": 1548805075
  },
  {
    "city": "Bandar Seri Begawan",
    "city_ascii": "Bandar Seri Begawan",
    "lat": 4.9167,
    "lng": 114.9167,
    "country": "Brunei",
    "iso2": "BN",
    "iso3": "BRN",
    "admin_name": "Brunei and Muara",
    "capital": "primary",
    "population": 50000,
    "id": 1096465895
  },
  {
    "city": "Monaco",
    "city_ascii": "Monaco",
    "lat": 43.7396,
    "lng": 7.4069,
    "country": "Monaco",
    "iso2": "MC",
    "iso3": "MCO",
    "admin_name": "",
    "capital": "primary",
    "population": 36371,
    "id": 1492854256
  },
  {
    "city": "Gitega",
    "city_ascii": "Gitega",
    "lat": -3.4264,
    "lng": 29.9306,
    "country": "Burundi",
    "iso2": "BI",
    "iso3": "BDI",
    "admin_name": "Gitega",
    "capital": "primary",
    "population": 41944,
    "id": 1108778000
  },
  {
    "city": "Port of Spain",
    "city_ascii": "Port of Spain",
    "lat": 10.6667,
    "lng": -61.5167,
    "country": "Trinidad And Tobago",
    "iso2": "TT",
    "iso3": "TTO",
    "admin_name": "Port of Spain",
    "capital": "primary",
    "population": 37074,
    "id": 1780670676
  },
  {
    "city": "Apia",
    "city_ascii": "Apia",
    "lat": -13.8333,
    "lng": -171.8333,
    "country": "Samoa",
    "iso2": "WS",
    "iso3": "WSM",
    "admin_name": "Tuamasaga",
    "capital": "primary",
    "population": 37708,
    "id": 1882489296
  },
  {
    "city": "Vaduz",
    "city_ascii": "Vaduz",
    "lat": 47.1415,
    "lng": 9.5215,
    "country": "Liechtenstein",
    "iso2": "LI",
    "iso3": "LIE",
    "admin_name": "Vaduz",
    "capital": "primary",
    "population": 36281,
    "id": 1438317747
  },
  {
    "city": "Banjul",
    "city_ascii": "Banjul",
    "lat": 13.4531,
    "lng": -16.5775,
    "country": "Gambia, The",
    "iso2": "GM",
    "iso3": "GMB",
    "admin_name": "Banjul",
    "capital": "primary",
    "population": 31356,
    "id": 1270723713
  },
  {
    "city": "Tarawa",
    "city_ascii": "Tarawa",
    "lat": 1.3382,
    "lng": 173.0176,
    "country": "Kiribati",
    "iso2": "KI",
    "iso3": "KIR",
    "admin_name": "",
    "capital": "primary",
    "population": 28802,
    "id": 1296152641
  },
  {
    "city": "Victoria",
    "city_ascii": "Victoria",
    "lat": -4.6236,
    "lng": 55.4544,
    "country": "Seychelles",
    "iso2": "SC",
    "iso3": "SYC",
    "admin_name": "English River",
    "capital": "primary",
    "population": 26450,
    "id": 1690193579
  },
  {
    "city": "Majuro",
    "city_ascii": "Majuro",
    "lat": 7.1167,
    "lng": 171.3667,
    "country": "Marshall Islands",
    "iso2": "MH",
    "iso3": "MHL",
    "admin_name": "Majuro",
    "capital": "primary",
    "population": 25400,
    "id": 1584000000
  },
  {
    "city": "Kingstown",
    "city_ascii": "Kingstown",
    "lat": 13.1667,
    "lng": -61.2333,
    "country": "Saint Vincent And The Grenadines",
    "iso2": "VC",
    "iso3": "VCT",
    "admin_name": "Saint George",
    "capital": "primary",
    "population": 25418,
    "id": 1670376659
  },
  {
    "city": "Nuku‘alofa",
    "city_ascii": "Nuku`alofa",
    "lat": -21.1347,
    "lng": -175.2083,
    "country": "Tonga",
    "iso2": "TO",
    "iso3": "TON",
    "admin_name": "Tongatapu",
    "capital": "primary",
    "population": 24571,
    "id": 1776737461
  },
  {
    "city": "Saint John’s",
    "city_ascii": "Saint John's",
    "lat": 17.1211,
    "lng": -61.8447,
    "country": "Antigua And Barbuda",
    "iso2": "AG",
    "iso3": "ATG",
    "admin_name": "Saint John",
    "capital": "primary",
    "population": 21926,
    "id": 1028912067
  },
  {
    "city": "Andorra la Vella",
    "city_ascii": "Andorra la Vella",
    "lat": 42.5,
    "lng": 1.5,
    "country": "Andorra",
    "iso2": "AD",
    "iso3": "AND",
    "admin_name": "Andorra la Vella",
    "capital": "primary",
    "population": 22151,
    "id": 1020828846
  },
  {
    "city": "Belmopan",
    "city_ascii": "Belmopan",
    "lat": 17.25,
    "lng": -88.7675,
    "country": "Belize",
    "iso2": "BZ",
    "iso3": "BLZ",
    "admin_name": "Cayo",
    "capital": "primary",
    "population": 17222,
    "id": 1084586375
  },
  {
    "city": "Roseau",
    "city_ascii": "Roseau",
    "lat": 15.3,
    "lng": -61.3833,
    "country": "Dominica",
    "iso2": "DM",
    "iso3": "DMA",
    "admin_name": "Saint George",
    "capital": "primary",
    "population": 16582,
    "id": 1212060440
  },
  {
    "city": "Basseterre",
    "city_ascii": "Basseterre",
    "lat": 17.2983,
    "lng": -62.7342,
    "country": "Saint Kitts And Nevis",
    "iso2": "KN",
    "iso3": "KNA",
    "admin_name": "Saint George Basseterre",
    "capital": "primary",
    "population": 13220,
    "id": 1659198919
  },
  {
    "city": "Pago Pago",
    "city_ascii": "Pago Pago",
    "lat": -14.274,
    "lng": -170.7046,
    "country": "American Samoa",
    "iso2": "AS",
    "iso3": "ASM",
    "admin_name": "",
    "capital": "primary",
    "population": 12576,
    "id": 1016976740
  },
  {
    "city": "Valletta",
    "city_ascii": "Valletta",
    "lat": 35.8978,
    "lng": 14.5125,
    "country": "Malta",
    "iso2": "MT",
    "iso3": "MLT",
    "admin_name": "Valletta",
    "capital": "primary",
    "population": 6444,
    "id": 1470574399
  },
  {
    "city": "Palikir",
    "city_ascii": "Palikir",
    "lat": 6.9178,
    "lng": 158.185,
    "country": "Micronesia, Federated States Of",
    "iso2": "FM",
    "iso3": "FSM",
    "admin_name": "Pohnpei",
    "capital": "primary",
    "population": 6227,
    "id": 1583008885
  },
  {
    "city": "Funafuti",
    "city_ascii": "Funafuti",
    "lat": -8.5167,
    "lng": 179.2167,
    "country": "Tuvalu",
    "iso2": "TV",
    "iso3": "TUV",
    "admin_name": "Funafuti",
    "capital": "primary",
    "population": 6025,
    "id": 1798251391
  },
  {
    "city": "Lobamba",
    "city_ascii": "Lobamba",
    "lat": -26.4167,
    "lng": 31.1667,
    "country": "Swaziland",
    "iso2": "SZ",
    "iso3": "SWZ",
    "admin_name": "Hhohho",
    "capital": "primary",
    "population": 5800,
    "id": 1748963140
  },
  {
    "city": "Saint George’s",
    "city_ascii": "Saint George's",
    "lat": 12.0444,
    "lng": -61.7417,
    "country": "Grenada",
    "iso2": "GD",
    "iso3": "GRD",
    "admin_name": "Saint George",
    "capital": "primary",
    "population": 4315,
    "id": 1308891766
  },
  {
    "city": "San Marino",
    "city_ascii": "San Marino",
    "lat": 43.932,
    "lng": 12.4484,
    "country": "San Marino",
    "iso2": "SM",
    "iso3": "SMR",
    "admin_name": "San Marino Città",
    "capital": "primary",
    "population": 4040,
    "id": 1674741947
  },
  {
    "city": "Al Quds",
    "city_ascii": "Al Quds",
    "lat": 31.7764,
    "lng": 35.2269,
    "country": "West Bank",
    "iso2": "XW",
    "iso3": "XWB",
    "admin_name": "",
    "capital": "primary",
    "population": null,
    "id": 1934000006
  },
  {
    "city": "Capitol Hill",
    "city_ascii": "Capitol Hill",
    "lat": 15.2137,
    "lng": 145.7546,
    "country": "Northern Mariana Islands",
    "iso2": "MP",
    "iso3": "MNP",
    "admin_name": "",
    "capital": "primary",
    "population": 2500,
    "id": 1580556972
  },
  {
    "city": "Hagåtña",
    "city_ascii": "Hagta",
    "lat": 13.4745,
    "lng": 144.7504,
    "country": "Guam",
    "iso2": "GU",
    "iso3": "GUM",
    "admin_name": "",
    "capital": "primary",
    "population": 1051,
    "id": 1316937540
  },
  {
    "city": "Ngerulmud",
    "city_ascii": "Ngerulmud",
    "lat": 7.5006,
    "lng": 134.6242,
    "country": "Palau",
    "iso2": "PW",
    "iso3": "PLW",
    "admin_name": "Melekeok",
    "capital": "primary",
    "population": null,
    "id": 1585525081
  }
]
